{
  "onsen": [
    {
      "id": "totsukawa",
      "name": "十津川温泉",
      "displayName": "十津川温泉",
      "prefecture": "奈良",
      "area": "玉置山",
      "lat": 33.924,
      "lng": 135.796,
      "confirmed": true,
      "facility": "やまとや",
      "springQuality": "ナトリウム炭酸水素塩泉",
      "address": "奈良県吉野郡十津川村平谷630-5",
      "googleMap": "https://maps.app.goo.gl/ZBJNvSp55xvh5rDy6",
      "note": ""
    },
    {
      "id": "hagenoyu",
      "name": "はげの湯温泉",
      "displayName": "はげの湯温泉",
      "prefecture": "熊本",
      "area": "涌蓋山",
      "lat": 33.118,
      "lng": 131.047,
      "confirmed": true,
      "facility": "くぬぎ湯",
      "springQuality": "低張性中性単純温泉",
      "address": "熊本県阿蘇郡小国町西里2978",
      "googleMap": "https://maps.app.goo.gl/Bad1PqByu9BMAJTY9",
      "note": "煙もくもく"
    },
    {
      "id": "kaike",
      "name": "皆生温泉",
      "displayName": "皆生温泉",
      "prefecture": "鳥取",
      "area": "",
      "lat": 35.459,
      "lng": 133.357,
      "confirmed": true,
      "facility": "",
      "springQuality": "",
      "address": "",
      "googleMap": "",
      "note": ""
    },
    {
      "id": "shirahama",
      "name": "白浜温泉",
      "displayName": "白浜温泉",
      "prefecture": "和歌山",
      "area": "",
      "lat": 33.682,
      "lng": 135.349,
      "confirmed": true,
      "facility": "崎の湯",
      "springQuality": "ナトリウム塩化物泉",
      "address": "",
      "googleMap": "https://maps.app.goo.gl/6ZSruWBa2iRKrSdL9",
      "note": ""
    },
    {
      "id": "kawayu-hokkaido",
      "name": "川湯温泉",
      "displayName": "川湯温泉（北海道）",
      "prefecture": "北海道",
      "area": "",
      "lat": 43.63,
      "lng": 144.444,
      "confirmed": true,
      "facility": "",
      "springQuality": "",
      "address": "",
      "googleMap": "",
      "note": "大鵬の故郷"
    },
    {
      "id": "ryujin",
      "name": "龍神温泉",
      "displayName": "龍神温泉",
      "prefecture": "和歌山",
      "area": "",
      "lat": 33.911,
      "lng": 135.568,
      "confirmed": true,
      "facility": "",
      "springQuality": "",
      "address": "",
      "googleMap": "",
      "note": ""
    },
    {
      "id": "sakakibara",
      "name": "榊原温泉",
      "displayName": "榊原温泉",
      "prefecture": "三重",
      "area": "",
      "lat": 34.694,
      "lng": 136.311,
      "confirmed": true,
      "facility": "榊原館",
      "springQuality": "アルカリ性単純泉",
      "address": "",
      "googleMap": "",
      "note": "ぬるっとしていて明らかに肌に良い。温度調整なしの源泉が程よく冷えていて、交代浴が最高に気持ち良い。古くから湯治場であり、伊勢参り前の清めとしての湯ごり。"
    },
    {
      "id": "izumo-yumura",
      "name": "出雲湯村温泉",
      "displayName": "出雲湯村温泉",
      "prefecture": "島根",
      "area": "斐伊川",
      "lat": 35.215,
      "lng": 132.893,
      "confirmed": true,
      "facility": "",
      "springQuality": "",
      "address": "",
      "googleMap": "",
      "note": ""
    },
    {
      "id": "yunotsu",
      "name": "温泉津温泉",
      "displayName": "温泉津温泉",
      "prefecture": "島根",
      "area": "温泉津",
      "lat": 35.097,
      "lng": 132.348,
      "confirmed": true,
      "facility": "",
      "springQuality": "",
      "address": "",
      "googleMap": "",
      "note": ""
    },
    {
      "id": "yubara",
      "name": "湯原温泉",
      "displayName": "湯原温泉",
      "prefecture": "岡山",
      "area": "真庭",
      "lat": 35.198,
      "lng": 133.736,
      "confirmed": true,
      "facility": "",
      "springQuality": "低張性アルカリ性高温泉（アルカリ性単純温泉）",
      "address": "",
      "googleMap": "https://maps.app.goo.gl/MTk97huffryHRhVv6",
      "note": "ホタル。砂湯。"
    },
    {
      "id": "arima",
      "name": "有馬温泉",
      "displayName": "有馬温泉",
      "prefecture": "兵庫",
      "area": "",
      "lat": 34.797,
      "lng": 135.247,
      "confirmed": true,
      "facility": "",
      "springQuality": "",
      "address": "",
      "googleMap": "",
      "note": "2種類の泉質"
    },
    {
      "id": "sanbe",
      "name": "三瓶温泉",
      "displayName": "三瓶温泉",
      "prefecture": "島根",
      "area": "三瓶山",
      "lat": 35.132,
      "lng": 132.61,
      "confirmed": true,
      "facility": "",
      "springQuality": "",
      "address": "",
      "googleMap": "",
      "note": ""
    },
    {
      "id": "tamatsukuri",
      "name": "玉造温泉",
      "displayName": "玉造温泉",
      "prefecture": "島根",
      "area": "",
      "lat": 35.414,
      "lng": 133.011,
      "confirmed": true,
      "facility": "",
      "springQuality": "",
      "address": "",
      "googleMap": "",
      "note": ""
    },
    {
      "id": "kose",
      "name": "小瀬温泉",
      "displayName": "小瀬温泉",
      "prefecture": "長野",
      "area": "軽井沢",
      "lat": 36.368,
      "lng": 138.587,
      "confirmed": true,
      "facility": "小瀬温泉ホテル",
      "springQuality": "ナトリウム-炭酸水素塩温泉",
      "address": "",
      "googleMap": "https://maps.app.goo.gl/5Uw6kctmjEE5h1bi9",
      "note": ""
    },
    {
      "id": "yugawara",
      "name": "湯河原温泉",
      "displayName": "湯河原温泉",
      "prefecture": "神奈川",
      "area": "湯河原",
      "lat": 35.145,
      "lng": 139.073,
      "confirmed": true,
      "facility": "上野屋",
      "springQuality": "ナトリウム・カルシウム－塩化物・硫酸塩泉",
      "address": "",
      "googleMap": "",
      "note": "湯河原、遠藤さん"
    },
    {
      "id": "nukabira",
      "name": "糠平温泉",
      "displayName": "糠平温泉",
      "prefecture": "北海道",
      "area": "上士幌",
      "lat": 43.392,
      "lng": 143.097,
      "confirmed": true,
      "facility": "中村屋",
      "springQuality": "ナトリウム・塩化物−炭酸水素塩泉（重曹泉）",
      "address": "北海道河東郡上士幌町南区ぬかびら源泉郷",
      "googleMap": "https://maps.app.goo.gl/jMVrbYYebYWkzp7H8",
      "note": "タウシュベツ川橋梁"
    },
    {
      "id": "yunomine",
      "name": "湯の峰温泉",
      "displayName": "湯の峰温泉",
      "prefecture": "和歌山",
      "area": "熊野",
      "lat": 33.828,
      "lng": 135.757,
      "confirmed": true,
      "facility": "つぼ湯",
      "springQuality": "",
      "address": "",
      "googleMap": "",
      "note": ""
    }
  ]
}
